City_ID,City,Country,Lat,Lng,Max Temp,Humidity,Cloudiness,Wind Speed,Current Description
0,Khromtau,KZ,50.2503,58.4347,24.19,36,15,3.81,few clouds
1,Upernavik,GL,72.7868,-56.1549,8.32,67,14,0.84,few clouds
2,Longyearbyen,SJ,78.2186,15.6401,7.91,76,75,8.75,light rain
3,Bredasdorp,ZA,-34.5322,20.0403,14.04,97,20,1.9,few clouds
4,Saint-Philippe,RE,-21.3585,55.7679,19.77,68,15,0.86,few clouds
5,Berea,US,41.3662,-81.8543,25.66,50,1,0.89,clear sky
6,Mataura,NZ,-46.1927,168.8643,6.38,97,100,1.08,overcast clouds
7,Mount Gambier,AU,-37.8333,140.7667,6.42,92,84,3.33,broken clouds
8,Ushuaia,AR,-54.8,-68.3,5.81,61,75,1.54,moderate rain
9,Luwuk,ID,-0.9516,122.7875,24.35,79,60,2.23,broken clouds
10,Hithadhoo,MV,-0.6,73.0833,27.59,71,100,2.85,overcast clouds
11,Goderich,CA,43.7501,-81.7165,23.35,67,7,2.64,clear sky
12,Pisco,PE,-13.7,-76.2167,18.34,77,0,4.63,clear sky
13,Lebu,CL,-37.6167,-73.65,12.13,74,29,8.89,scattered clouds
14,Coquimbo,CL,-29.9533,-71.3436,14.85,72,0,4.12,clear sky
15,Katsuura,JP,35.1333,140.3,27.33,87,38,4.44,scattered clouds
16,New Norfolk,AU,-42.7826,147.0587,6.06,81,100,1.1,overcast clouds
17,Isangel,VU,-19.55,169.2667,21.79,59,4,4.39,clear sky
18,Prince Rupert,CA,54.3161,-130.3201,18.47,64,8,2.64,clear sky
19,Tiksi,RU,71.6872,128.8694,9.78,65,94,1.89,overcast clouds
20,Albany,US,42.6001,-73.9662,25.88,49,16,5.21,few clouds
21,Butaritari,KI,3.0707,172.7902,28.2,71,29,2.4,light rain
22,Selty,RU,57.3132,52.1345,17.97,92,97,1.52,overcast clouds
23,Provideniya,RU,64.3833,-173.3,11.06,82,90,6.0,moderate rain
24,Quelimane,MZ,-17.8786,36.8883,16.8,77,0,1.73,clear sky
25,Carnarvon,AU,-24.8667,113.6333,8.04,46,0,5.14,clear sky
26,Boa Vista,BR,2.8197,-60.6733,27.99,69,75,1.03,light rain
27,Cabo San Lucas,MX,22.8909,-109.9124,38.23,49,75,7.72,broken clouds
28,Pacific Grove,US,36.6177,-121.9166,33.12,70,1,3.13,clear sky
29,Pevek,RU,69.7008,170.3133,1.16,83,100,9.82,overcast clouds
30,Bandarbeyla,SO,9.4942,50.8122,25.17,81,5,14.09,clear sky
31,Fukue,JP,32.6881,128.8419,27.14,80,38,6.35,scattered clouds
32,Marienburg,PL,54.0359,19.0266,17.71,71,7,4.1,clear sky
33,Dikson,RU,73.5069,80.5464,10.22,78,94,4.84,overcast clouds
34,Atuona,PF,-9.8,-139.0333,25.32,76,28,8.13,scattered clouds
35,Saskylakh,RU,71.9167,114.0833,16.88,71,23,2.49,few clouds
36,Hami,CN,42.8,93.45,25.47,21,1,2.86,clear sky
37,Bluff,NZ,-46.6,168.3333,6.56,69,100,4.54,overcast clouds
38,Hualmay,PE,-11.0964,-77.6139,19.78,72,8,4.59,clear sky
39,Iqaluit,CA,63.7506,-68.5145,10.39,87,100,1.79,overcast clouds
40,Tailai,CN,46.3833,123.4,17.57,98,100,5.53,moderate rain
41,Port Blair,IN,11.6667,92.75,27.55,83,99,9.41,overcast clouds
42,Angoche,MZ,-16.2325,39.9086,21.3,67,0,4.58,clear sky
43,Andrushivka,UA,50.0229,29.0202,15.67,83,2,3.02,clear sky
44,Nanortalik,GL,60.1432,-45.2371,7.75,88,95,0.87,light rain
45,Tilichiki,RU,60.4667,166.1,9.89,50,81,10.03,broken clouds
46,Ponta Do Sol,PT,32.6667,-17.1,23.34,74,10,3.31,clear sky
47,Montepuez,MZ,-13.1256,38.9997,19.26,74,79,3.48,broken clouds
48,Port Arthur,CN,38.8,121.2667,23.12,88,10,3.59,clear sky
49,Busselton,AU,-33.65,115.3333,12.28,76,100,3.27,overcast clouds
50,Sabang,ID,5.8933,95.3214,27.99,75,99,9.39,overcast clouds
51,Victoria,HK,22.2855,114.1577,29.62,88,100,1.79,moderate rain
52,Rikitea,PF,-23.1203,-134.9692,20.58,57,77,8.98,broken clouds
53,Tuktoyaktuk,CA,69.4541,-133.0374,6.94,92,100,6.16,light rain
54,Puerto Ayora,EC,-0.7393,-90.3518,22.75,82,72,5.34,broken clouds
55,Chuy,UY,-33.6971,-53.4616,10.76,93,25,2.71,scattered clouds
56,Marrakesh,MA,31.6315,-8.0083,26.04,50,0,5.14,clear sky
57,Khutar,IN,28.2,80.2833,26.07,91,22,4.12,few clouds
58,Flinders,AU,-34.5833,150.8552,14.1,88,86,0.45,overcast clouds
59,Chokurdakh,RU,70.6333,147.9167,7.41,57,51,3.49,broken clouds
60,Castro,BR,-24.7911,-50.0119,11.84,81,0,1.25,clear sky
61,Tuatapere,NZ,-46.1333,167.6833,6.57,84,99,1.94,overcast clouds
62,Mahebourg,MU,-20.4081,57.7,17.92,68,1,0.85,clear sky
63,Hobart,AU,-42.8794,147.3294,6.26,88,75,0.0,broken clouds
64,Naze,JP,28.3667,129.4833,25.5,86,53,7.3,broken clouds
65,Port Hedland,AU,-20.3167,118.5667,12.03,28,16,4.63,few clouds
66,Jamestown,US,42.097,-79.2353,22.79,47,20,1.34,few clouds
67,Avera,US,33.194,-82.5271,34.84,35,14,1.93,few clouds
68,Kapaa,US,22.0752,-159.319,29.18,78,20,2.68,few clouds
69,Soyo,AO,-6.1349,12.3689,22.64,85,29,3.25,scattered clouds
70,East London,ZA,-33.0153,27.9116,15.42,76,79,7.5,broken clouds
71,Kaitangata,NZ,-46.2817,169.8464,8.29,63,100,4.31,overcast clouds
72,Komsomolskiy,UZ,40.4272,71.7189,23.68,36,98,1.36,overcast clouds
73,Minab,IR,27.1467,57.0801,33.72,41,100,1.89,overcast clouds
74,Ancud,CL,-41.8697,-73.8203,12.74,97,100,1.81,overcast clouds
75,Turka,UA,49.1541,23.0297,14.59,87,23,0.74,few clouds
76,Hermanus,ZA,-34.4187,19.2345,14.33,90,3,4.47,clear sky
77,Birao,CF,10.2849,22.7882,21.42,96,87,1.67,light rain
78,Georgetown,MY,5.4112,100.3354,27.72,86,20,0.0,light rain
79,Alofi,NU,-19.0595,-169.9187,24.94,73,40,5.14,scattered clouds
80,Port Hardy,CA,50.6996,-127.4199,16.7,74,4,3.38,clear sky
81,Entre Rios,BR,-11.9419,-38.0844,19.24,94,2,2.01,clear sky
82,Menongue,AO,-14.6585,17.691,13.4,37,5,2.18,clear sky
83,Padang,ID,-0.9492,100.3543,24.77,84,100,1.7,light rain
84,Ust-Kan,RU,50.9276,84.761,12.17,77,48,1.59,scattered clouds
85,Clyde River,CA,70.4692,-68.5914,5.13,80,75,1.99,broken clouds
86,Naifaru,MV,5.4444,73.3657,28.0,73,100,3.01,overcast clouds
87,Borogontsy,RU,62.6683,131.1683,17.22,67,95,2.52,overcast clouds
88,Zyryanka,RU,65.75,150.85,8.03,56,59,2.94,broken clouds
89,Port Alfred,ZA,-33.5906,26.891,14.61,80,46,9.22,scattered clouds
90,Nome,US,64.5011,-165.4064,14.04,88,90,8.23,light rain
91,Idlib,SY,35.9306,36.6339,26.66,52,1,3.43,clear sky
92,Sisimiut,GL,66.9395,-53.6735,8.26,94,99,2.46,light rain
93,Cairns,AU,-16.9167,145.7667,19.97,80,75,3.09,broken clouds
94,Vaini,TO,-21.2,-175.2,23.09,73,40,5.66,scattered clouds
95,Pustoshka,RU,56.3355,29.369,13.31,97,86,4.72,light rain
96,Aswan,EG,24.0934,32.907,34.33,14,1,3.98,clear sky
97,Kavaratti,IN,10.5669,72.642,27.86,74,90,6.5,overcast clouds
98,Yellowknife,CA,62.456,-114.3525,29.84,26,0,4.03,clear sky
99,Aracatuba,BR,-21.2089,-50.4328,23.51,37,0,2.86,clear sky
100,Yerofey Pavlovich,RU,53.9667,121.9667,11.85,98,66,1.46,light rain
101,Dire,ML,12.2833,-10.9667,23.57,94,90,0.63,moderate rain
102,Baturaja,ID,-4.1333,104.1667,22.41,98,94,0.98,overcast clouds
103,Qaanaaq,GL,77.484,-69.3632,7.38,66,100,1.96,overcast clouds
104,Chumikan,RU,54.7183,135.315,10.87,97,100,5.51,light rain
105,Xining,CN,36.6167,101.7667,14.12,94,100,0.98,overcast clouds
106,Griffith,US,41.5284,-87.4237,25.08,51,90,0.89,overcast clouds
107,Leningradskiy,RU,69.3833,178.4167,0.47,99,100,4.97,light snow
108,Brenham,US,30.1669,-96.3977,31.71,79,40,2.57,scattered clouds
109,Cherskiy,RU,68.75,161.3,4.45,66,98,7.05,overcast clouds
110,Mar Del Plata,AR,-38.0023,-57.5575,13.94,61,0,5.36,clear sky
111,Feni,BD,23.0186,91.41,24.73,97,100,2.93,overcast clouds
112,Vila Franca Do Campo,PT,37.7167,-25.4333,21.23,78,0,3.19,clear sky
113,Aklavik,CA,68.2191,-135.0107,19.47,57,91,6.08,overcast clouds
114,Arraial Do Cabo,BR,-22.9661,-42.0278,19.92,77,0,5.14,clear sky
115,Alice Springs,AU,-23.7,133.8833,4.75,48,0,2.06,clear sky
116,Salalah,OM,17.0151,54.0924,26.05,89,90,2.57,overcast clouds
117,Makakilo City,US,21.3469,-158.0858,28.18,54,20,7.72,few clouds
118,Punta Arenas,CL,-53.15,-70.9167,5.06,81,40,13.38,light intensity shower rain
119,Barrow,US,71.2906,-156.7887,7.01,81,90,9.26,overcast clouds
120,Asuncion,PY,-25.3007,-57.6359,21.69,37,0,3.6,clear sky
121,Xiamen,CN,24.4798,118.0819,25.69,91,100,2.69,overcast clouds
122,Nordby,DK,55.446,8.3979,15.02,80,90,3.58,overcast clouds
123,Lata,PT,40.1629,-8.3327,21.13,85,18,1.56,few clouds
124,Kabanjahe,ID,3.1001,98.4908,16.42,95,100,1.67,overcast clouds
125,Saint George,US,37.1041,-113.5841,38.55,22,1,4.02,clear sky
126,Burns Lake,CA,54.2331,-125.7533,28.93,34,12,2.51,few clouds
127,Kahului,US,20.8947,-156.47,29.59,67,40,10.29,scattered clouds
128,Cuiluan,CN,47.72,128.648,19.58,99,100,0.85,overcast clouds
129,Luderitz,NA,-26.6481,15.1594,19.49,37,0,1.04,clear sky
130,Oktyabrskiy,RU,54.4815,53.471,21.06,46,86,1.59,overcast clouds
131,Vikulovo,RU,56.8167,70.6107,16.68,74,65,2.97,broken clouds
132,Acapulco,MX,16.8634,-99.8901,31.9,66,1,4.63,clear sky
133,Avarua,CK,-21.2078,-159.775,24.03,88,75,5.66,light rain
134,Mount Isa,AU,-20.7333,139.5,17.87,34,75,8.23,broken clouds
135,Kysyl-Syr,RU,63.8986,122.7617,15.78,54,0,2.73,clear sky
136,Dingzhou,CN,38.5131,114.9956,21.61,85,45,1.09,scattered clouds
137,Lavrentiya,RU,65.5833,-171.0,6.98,99,100,3.68,moderate rain
138,Machali,CL,-34.1833,-70.6667,21.6,24,0,3.6,clear sky
139,Finschhafen,PG,-6.6024,147.8681,25.39,82,76,2.62,broken clouds
140,Teahupoo,PF,-17.8333,-149.2667,24.98,74,90,7.04,overcast clouds
141,Brcko,BA,44.8728,18.8083,20.43,55,86,1.81,overcast clouds
142,Torbay,CA,47.6666,-52.7314,20.38,67,100,2.33,overcast clouds
143,Husavik,IS,66.0449,-17.3389,12.23,85,77,2.38,broken clouds
144,Lebyazhye,RU,55.2689,66.4947,17.18,67,74,3.25,broken clouds
145,Waddan,LY,29.1614,16.139,31.7,18,0,6.89,clear sky
146,Hobyo,SO,5.3505,48.5268,25.16,79,31,10.75,scattered clouds
147,Ixtapa,MX,20.7,-105.2,31.79,70,40,5.14,scattered clouds
148,Ilulissat,GL,69.2167,-51.1,5.57,81,99,1.35,overcast clouds
149,Bambous Virieux,MU,-20.3428,57.7575,17.9,68,1,1.16,clear sky
150,Tura,IN,25.5198,90.2201,23.36,98,99,1.6,overcast clouds
151,Petropavlovka,RU,50.6114,105.3196,14.1,90,100,2.34,light rain
152,Mishan,CN,45.55,131.8833,20.78,84,50,1.73,scattered clouds
153,Cayenne,GF,4.9333,-52.3333,29.02,76,52,0.89,broken clouds
154,Ribeira Grande,PT,38.5167,-28.7,22.98,92,44,3.52,scattered clouds
155,Sibolga,ID,1.7427,98.7792,24.53,84,99,1.37,overcast clouds
156,San Javier,ES,37.8063,-0.8374,25.55,73,20,1.79,few clouds
157,Nisia Floresta,BR,-6.0911,-35.2086,24.45,84,19,5.11,few clouds
158,Hilo,US,19.7297,-155.09,26.85,75,90,2.57,light rain
159,Hokitika,NZ,-42.7167,170.9667,8.33,82,100,3.45,light rain
160,Vardo,NO,70.3705,31.1107,8.86,87,0,2.06,clear sky
161,Yaring,TH,6.8662,101.3689,26.31,82,98,4.01,overcast clouds
162,Richards Bay,ZA,-28.783,32.0377,17.95,83,93,1.76,light rain
163,San Cristobal,VE,7.7669,-72.225,28.1,88,100,2.9,overcast clouds
164,Cidreira,BR,-30.1811,-50.2056,12.79,81,0,2.65,clear sky
165,Shakawe,BW,-18.3667,21.85,15.27,35,2,2.11,clear sky
166,Alihe,CN,50.5667,123.7167,14.07,96,94,1.12,overcast clouds
167,Meulaboh,ID,4.1363,96.1285,23.85,85,87,2.23,overcast clouds
168,Timmins,CA,48.4669,-81.3331,20.39,56,100,4.03,overcast clouds
169,Geelong,AU,-38.1471,144.3607,9.49,89,99,1.34,overcast clouds
170,Cape Town,ZA,-33.9258,18.4232,13.95,92,0,1.03,fog
171,Kodiak,US,57.79,-152.4072,12.73,82,90,2.06,overcast clouds
172,Yeppoon,AU,-23.1333,150.7333,11.88,89,1,2.54,clear sky
173,Airai,TL,-8.9266,125.4092,13.06,79,62,1.53,broken clouds
174,Doha,QA,25.2867,51.5333,35.17,75,0,1.03,clear sky
175,Necochea,AR,-38.5473,-58.7368,15.58,58,17,5.44,few clouds
176,Manono,CD,-7.3,27.4167,24.0,35,4,2.38,clear sky
177,Pitimbu,BR,-7.4706,-34.8086,23.33,84,11,6.12,few clouds
178,Svetlogorsk,BY,52.6333,29.7333,15.11,89,34,3.99,scattered clouds
179,Daru,PG,-9.0763,143.2092,24.79,71,100,4.4,overcast clouds
180,Koumac,NC,-20.5667,164.2833,18.87,63,5,1.71,clear sky
181,Aguadilla,PR,18.4275,-67.1541,28.06,85,90,0.45,overcast clouds
182,Mehamn,NO,71.0357,27.8492,8.95,86,27,0.73,scattered clouds
183,Ca Mau,VN,9.1769,105.15,25.33,90,96,2.5,overcast clouds
184,Narsaq,GL,60.9167,-46.05,12.12,81,93,2.27,overcast clouds
185,Korla,CN,41.7597,86.1469,25.61,22,100,0.83,overcast clouds
186,Penzance,GB,50.1186,-5.5371,14.87,79,53,3.23,broken clouds
187,Esperance,AU,-33.8667,121.9,11.1,83,100,4.75,light rain
188,Egvekinot,RU,66.3167,-179.1667,1.59,88,100,6.75,moderate rain
189,Constantine,DZ,36.365,6.6147,24.05,60,37,2.1,scattered clouds
190,Misratah,LY,32.3754,15.0925,29.86,56,0,4.36,clear sky
191,Liverpool,GB,53.4106,-2.9779,15.38,74,0,1.54,clear sky
192,Iwanai,JP,42.9744,140.5089,23.27,95,90,1.83,overcast clouds
193,Lazaro Cardenas,MX,17.9583,-102.2,30.46,70,19,4.34,few clouds
194,Sapele,NG,5.8941,5.6767,24.44,88,100,1.66,overcast clouds
195,Cabadiangan,PH,9.7531,122.4739,26.23,88,100,4.35,light rain
196,Azad Shahr,IR,34.7909,48.5707,21.12,36,68,2.86,broken clouds
197,Ziyang,CN,29.2497,117.8547,24.46,92,0,1.76,clear sky
198,Mahibadhoo,MV,3.7833,72.9667,27.97,72,98,2.15,overcast clouds
199,Leninskoye,KZ,41.7589,69.3864,27.96,31,19,2.07,few clouds
200,Eura,FI,61.1333,22.1333,15.41,94,100,2.03,overcast clouds
201,Kharp,RU,66.8014,65.8081,11.12,84,100,3.0,overcast clouds
202,Rameswaram,IN,9.2833,79.3,28.75,68,94,8.78,overcast clouds
203,Batemans Bay,AU,-35.7167,150.1833,12.73,87,62,3.11,broken clouds
204,Maraa,BR,-1.8333,-65.3667,29.71,52,95,0.6,overcast clouds
205,General Cepeda,MX,25.3833,-101.45,30.67,39,100,5.83,overcast clouds
206,Willowmore,ZA,-33.2926,23.4895,8.62,92,5,2.59,clear sky
207,Shelburne,CA,44.0787,-80.2041,23.71,27,50,4.58,scattered clouds
208,Port Elizabeth,ZA,-33.918,25.5701,14.16,82,90,6.17,overcast clouds
209,Noyabrsk,RU,63.1994,75.4507,15.69,70,100,2.64,overcast clouds
210,Codrington,AU,-38.2667,141.9667,5.57,94,100,4.11,light rain
211,Okha,RU,53.5739,142.9478,12.78,87,100,5.06,overcast clouds
212,Shellbrook,CA,53.2168,-106.4011,35.19,16,83,3.01,broken clouds
213,Champerico,GT,14.3,-91.9167,32.42,69,85,3.9,overcast clouds
214,Waingapu,ID,-9.6567,120.2641,23.63,87,65,3.41,broken clouds
215,Thompson,CA,55.7435,-97.8558,26.58,33,57,2.36,broken clouds
216,Mannarakkat,IN,10.9833,76.4667,25.75,97,84,1.28,broken clouds
217,Yulara,AU,-25.2406,130.9889,1.91,69,0,3.09,clear sky
218,Vyartsilya,RU,62.1764,30.693,13.03,98,100,2.98,moderate rain
219,Faanui,PF,-16.4833,-151.75,26.36,73,45,7.31,scattered clouds
220,Sirur,IN,18.8333,74.3833,22.66,85,100,8.33,overcast clouds
221,San Patricio,US,28.017,-97.5169,36.4,35,23,3.2,few clouds
222,Mogadishu,SO,2.0371,45.3438,24.48,84,80,8.0,broken clouds
223,Tromso,NO,69.6496,18.957,8.01,87,75,0.89,broken clouds
224,Carauari,BR,-4.8828,-66.8958,33.65,32,39,1.57,scattered clouds
225,Providencia,MX,28.7167,-111.5833,42.56,54,19,5.81,few clouds
226,Ushtobe,KZ,45.2514,77.9838,23.98,21,100,3.92,overcast clouds
227,Sal Rei,CV,16.1833,-22.9167,25.31,82,61,4.18,broken clouds
228,Ulladulla,AU,-35.35,150.4667,13.82,87,76,4.43,broken clouds
229,Namibe,AO,-15.1961,12.1522,20.83,82,85,0.82,overcast clouds
230,Lielvarde,LV,56.7207,24.8074,14.68,97,38,2.39,scattered clouds
231,Broome,US,42.2506,-75.833,23.63,50,1,1.79,clear sky
232,Kavieng,PG,-2.5744,150.7967,27.74,79,29,4.83,light rain
233,Gull Lake,CA,50.1001,-108.4847,33.92,17,73,7.99,broken clouds
234,Tasiilaq,GL,65.6145,-37.6368,8.09,83,100,1.25,overcast clouds
235,Mikkeli,FI,61.6886,27.2723,15.64,100,100,0.51,light intensity shower rain
236,Khatanga,RU,71.9667,102.5,17.19,64,74,4.45,broken clouds
237,Ranchuelo,CU,22.3772,-80.1489,34.98,46,99,2.46,overcast clouds
238,Emerald,AU,-23.5333,148.1667,13.52,78,7,3.66,clear sky
239,Asau,RO,46.4333,26.4,21.09,84,31,1.65,light rain
240,Krugersdorp,ZA,-26.0858,27.7752,12.89,35,0,4.1,clear sky
241,Moose Factory,CA,51.2585,-80.6094,21.99,68,75,4.63,broken clouds
242,Mehrabpur,PK,28.1085,68.0254,33.76,51,11,3.9,few clouds
243,Puksoozero,RU,62.5903,40.6066,15.5,79,100,2.72,overcast clouds
244,Imuris,MX,30.7833,-110.8667,36.54,27,16,0.47,light rain
245,Kot Diji,PK,27.3427,68.7083,31.18,61,71,6.91,broken clouds
246,Mikhaylovka,RU,50.06,43.2379,26.43,32,43,1.85,scattered clouds
247,Bethel,US,41.3712,-73.414,27.07,54,75,4.63,broken clouds
248,Tongzi,CN,28.7829,105.0877,24.52,88,0,1.3,clear sky
249,Torrijos,ES,39.9819,-4.2835,25.03,28,2,2.2,clear sky
250,Chapais,CA,49.7834,-74.8492,17.85,51,100,4.8,overcast clouds
251,La Estancia,MX,20.4167,-100.0667,22.68,45,44,2.66,scattered clouds
252,Mirnyy,RU,62.5353,113.9611,12.78,75,61,1.88,broken clouds
253,Sechura,PE,-5.5569,-80.8222,24.71,57,9,7.82,clear sky
254,Buraydah,SA,26.326,43.975,31.65,9,7,1.02,clear sky
255,Coihaique,CL,-45.5752,-72.0662,9.34,49,20,0.0,few clouds
256,Norman Wells,CA,65.282,-126.8329,31.47,25,0,3.83,clear sky
257,Porto Novo,BJ,6.4965,2.6036,24.89,88,100,2.08,overcast clouds
258,Saint-Joseph,RE,-21.3667,55.6167,19.21,67,7,1.14,clear sky
259,Khelyulya,RU,61.7333,30.6833,13.51,98,100,5.12,moderate rain
260,Bathsheba,BB,13.2167,-59.5167,29.34,74,20,4.12,few clouds
261,Goundi,TD,9.3627,17.366,22.38,95,78,1.81,broken clouds
262,Najran,SA,17.4924,44.1277,26.67,43,100,6.96,overcast clouds
263,Dezhou,CN,37.4486,116.2925,21.08,88,37,2.1,scattered clouds
264,Plouzane,FR,48.3833,-4.6167,15.18,79,75,2.06,broken clouds
265,Bilibino,RU,68.0546,166.4372,2.42,76,100,6.49,overcast clouds
266,Xichang,CN,27.8964,102.2634,17.23,73,24,0.98,few clouds
267,Aykhal,RU,66.0,111.5,17.3,58,100,3.97,overcast clouds
268,Klaksvik,FO,62.2266,-6.589,10.51,86,100,5.39,overcast clouds
269,Santa Cruz,BO,-17.8,-63.1667,27.47,18,0,2.66,clear sky
270,Banjar,ID,-8.19,114.9675,24.92,92,31,2.53,scattered clouds
271,Cap Malheureux,MU,-19.9842,57.6142,18.04,72,0,0.89,clear sky
272,Saint Anthony,US,45.0205,-93.218,29.5,36,90,3.09,overcast clouds
273,Havoysund,NO,70.9963,24.6622,9.49,80,16,9.58,few clouds
274,Karasjok,NO,69.4719,25.5112,7.06,76,4,2.53,clear sky
275,Hof,DE,50.3167,11.9167,13.68,88,58,1.79,broken clouds
276,Aginskoye,RU,51.1,114.53,17.36,72,99,0.21,overcast clouds
277,Tunggol,PH,5.8446,121.1544,27.62,81,90,2.21,overcast clouds
278,Sitka,US,57.0531,-135.33,16.94,72,90,4.63,overcast clouds
279,Hofn,IS,64.2539,-15.2082,12.02,86,88,4.09,overcast clouds
280,Neuenrade,DE,51.2833,7.7833,13.73,49,13,1.03,few clouds
281,Beloha,MG,-25.1667,45.05,17.4,82,0,2.0,clear sky
282,Saldanha,ZA,-33.0117,17.9442,13.9,74,0,2.75,clear sky
283,Athikia,GR,37.8167,22.9333,29.51,39,4,1.35,clear sky
284,Issenye,TZ,-2.0,34.3333,19.06,56,34,1.44,scattered clouds
285,Krasnoyarskiy,RU,51.965,59.8967,20.93,44,7,2.87,clear sky
286,Geraldton,AU,-28.7667,114.6,7.23,87,2,4.12,clear sky
287,Adrar,MR,20.5022,-10.0711,36.64,27,3,3.83,clear sky
288,Fairbanks,US,64.8378,-147.7164,28.94,50,1,2.57,clear sky
289,Fortuna,US,40.5982,-124.1573,34.15,72,20,2.24,few clouds
290,Makinsk,KZ,52.6292,70.4169,18.14,53,30,2.29,scattered clouds
291,Nikolskoye,RU,59.7035,30.7861,17.44,99,100,2.38,moderate rain
292,Bengkulu,ID,-3.8004,102.2655,23.96,89,50,1.59,scattered clouds
293,Saryg-Sep,RU,51.5,95.6,9.16,87,0,1.56,clear sky
294,Montbrison,FR,45.6667,4.0833,16.92,84,51,1.03,broken clouds
295,Gunnedah,AU,-30.9833,150.25,14.79,88,65,1.79,broken clouds
296,General Roca,AR,-39.0333,-67.5833,19.22,21,66,4.34,broken clouds
297,Arman,RU,59.7,150.1667,10.29,56,0,4.56,clear sky
298,Merauke,ID,-8.4667,140.3333,22.57,83,74,4.95,broken clouds
299,Kununurra,AU,-15.7667,128.7333,22.99,49,77,2.57,broken clouds
300,La Ronge,CA,55.1001,-105.2842,28.4,26,100,1.11,overcast clouds
301,Touros,BR,-5.1989,-35.4608,24.5,78,31,7.78,scattered clouds
302,Llanes,ES,43.4198,-4.7549,19.45,80,58,1.51,broken clouds
303,Ouargaye,BF,11.5033,0.0572,27.52,62,100,3.63,overcast clouds
304,Guiratinga,BR,-16.3494,-53.7583,29.07,23,0,2.08,clear sky
305,Grindavik,IS,63.8424,-22.4338,12.17,87,75,4.12,broken clouds
306,Gus-Zheleznyy,RU,55.0581,41.1656,22.36,62,54,3.38,broken clouds
307,Dingle,PH,10.9995,122.6711,26.11,85,100,4.42,light rain
308,Kapoeta,SS,4.7717,33.5903,22.99,60,60,2.76,broken clouds
309,Belyy Yar,RU,53.6039,91.3903,18.94,72,0,1.0,clear sky
310,Mayo,US,38.8876,-76.5119,28.81,58,20,2.24,few clouds
311,Macapa,BR,0.0389,-51.0664,30.99,62,75,2.06,broken clouds
312,Rio Grande,BR,-32.035,-52.0986,13.06,89,13,3.41,few clouds
313,Moree,AU,-29.4667,149.85,16.01,94,40,6.17,light rain
314,Caravelas,BR,-17.7125,-39.2481,19.82,70,67,2.43,broken clouds
315,Alyangula,AU,-13.8483,136.4192,22.5,84,7,2.4,clear sky
316,Naryan-Mar,RU,67.6713,53.087,8.1,94,15,2.1,few clouds
317,Lucapa,AO,-8.4192,20.7447,20.81,27,86,0.57,overcast clouds
318,Searcy,US,35.2506,-91.7363,32.12,50,1,1.79,clear sky
319,Severo-Kurilsk,RU,50.6789,156.125,10.39,79,96,9.63,overcast clouds
320,Shimoda,JP,34.6667,138.95,26.17,86,96,2.63,overcast clouds
321,Cedar City,US,37.6775,-113.0619,30.22,25,1,0.0,clear sky
322,Paamiut,GL,61.994,-49.6678,7.35,89,100,1.94,overcast clouds
323,Chivilcoy,AR,-34.8957,-60.0167,15.57,65,0,1.79,clear sky
324,Santa Maria,BR,-29.6842,-53.8069,12.12,73,0,0.69,clear sky
325,Scalea,IT,39.813,15.7956,27.41,52,4,0.96,clear sky
326,Barentu,ER,15.1139,37.5928,19.75,88,100,1.62,overcast clouds
327,Balti,MD,47.7617,27.9289,21.22,86,31,3.3,light rain
328,The Valley,AI,18.217,-63.0578,29.34,74,20,46.3,few clouds
329,Koulikoro,ML,14.0,-7.75,27.04,68,100,3.3,overcast clouds
330,The Pas,CA,53.8251,-101.2541,33.71,22,42,3.14,scattered clouds
331,Wamba,NG,8.9333,8.6,21.73,95,100,1.61,light rain
332,Lagoa,PT,39.05,-27.9833,22.41,90,3,2.34,clear sky
333,Yarada,IN,17.65,83.2667,29.18,79,40,4.63,scattered clouds
334,Sao Joao Da Barra,BR,-21.6403,-41.0511,21.05,76,0,4.98,clear sky
335,Tefe,BR,-3.3542,-64.7114,31.06,58,40,2.57,scattered clouds
336,Stephenville,US,32.2207,-98.2023,30.34,58,90,3.6,overcast clouds
337,Asfi,MA,32.2994,-9.2372,20.43,87,0,7.15,clear sky
338,Balsas,BR,-7.5325,-46.0356,29.74,22,18,2.35,few clouds
339,Margate,GB,51.3813,1.3862,16.69,72,100,0.89,overcast clouds
340,Antalaha,MG,-14.9003,50.2788,18.85,90,5,2.62,clear sky
341,Buchanan,LR,5.8808,-10.0467,24.98,77,9,3.2,clear sky
342,Birjand,IR,32.8663,59.2211,21.35,19,0,5.46,clear sky
343,Fare,PF,-16.7,-151.0167,26.29,72,68,7.28,broken clouds
344,Les Cayes,HT,18.2,-73.75,28.81,72,79,3.81,broken clouds
345,Qui Nhon,VN,13.7667,109.2333,29.2,67,100,6.12,overcast clouds
346,Wodonga,AU,-36.1167,146.8833,9.0,95,75,1.79,broken clouds
347,Bandrele,YT,-12.9067,45.1914,22.86,83,0,3.09,clear sky
348,Chamba,IN,32.5667,76.1333,23.46,81,64,1.54,broken clouds
349,Baoma,CN,31.4859,106.1128,25.88,80,0,1.32,clear sky
350,Eydhafushi,MV,5.1033,73.0708,28.14,72,100,2.48,overcast clouds
351,Harindanga,IN,22.0383,88.3214,29.99,80,100,2.71,overcast clouds
352,Lasa,IT,46.6166,10.7002,15.95,91,51,1.39,broken clouds
353,Waipawa,NZ,-41.4122,175.5153,10.35,82,100,5.11,overcast clouds
354,Staritsa,RU,56.5075,34.9354,16.4,83,78,7.49,broken clouds
355,Tolaga Bay,NZ,-38.3667,178.3,9.89,93,100,4.77,overcast clouds
356,Ratnagiri,IN,16.9833,73.3,25.96,84,100,7.33,light rain
357,Axim,GH,4.8699,-2.2405,25.04,86,51,3.33,broken clouds
358,Mount Darwin,ZW,-16.7725,31.5838,12.61,60,0,1.55,clear sky
359,Kovernino,RU,57.1253,43.8142,19.45,80,100,3.54,overcast clouds
360,Shuangyang,CN,43.5242,125.6736,17.86,98,100,3.73,overcast clouds
361,Sao Jose Da Coroa Grande,BR,-8.8978,-35.1478,23.2,87,22,5.2,few clouds
362,Los Llanos De Aridane,ES,28.6585,-17.9182,21.86,91,75,6.17,broken clouds
363,Maceio,BR,-9.6658,-35.7353,22.69,100,75,3.09,broken clouds
364,Altamont,US,42.2068,-121.7372,34.32,21,1,1.34,clear sky
365,La Macarena,CO,2.1837,-73.7849,21.61,92,99,2.04,overcast clouds
366,Goksun,TR,38.021,36.4973,24.53,35,0,2.43,clear sky
367,Portland,US,45.5234,-122.6762,36.22,44,20,0.45,few clouds
368,Chimbote,PE,-9.0853,-78.5783,20.32,73,8,5.83,clear sky
369,Skjervoy,NO,70.0311,20.9714,8.87,79,76,6.96,broken clouds
370,Rakaia,NZ,-43.75,172.0167,7.62,82,100,8.92,light rain
371,Quatre Cocos,MU,-20.2078,57.7625,17.83,68,0,1.27,clear sky
372,Souillac,MU,-20.5167,57.5167,17.98,70,0,0.74,clear sky
373,Gumrak,RU,48.7826,44.3824,26.95,39,0,4.0,clear sky
374,Roald,NO,62.5833,6.1333,12.22,76,20,5.14,few clouds
375,Vila Velha,BR,-20.3297,-40.2925,23.31,77,0,0.51,clear sky
376,Banda Aceh,ID,5.5577,95.3222,26.23,78,95,5.9,overcast clouds
377,Slave Lake,CA,55.2834,-114.769,25.97,45,100,2.25,overcast clouds
378,Ostrovnoy,RU,68.0531,39.5131,12.03,93,65,2.92,broken clouds
379,Sungaipenuh,ID,-2.0833,101.3833,17.3,96,91,1.02,overcast clouds
380,Bonthe,SL,7.5264,-12.505,24.66,75,47,3.03,scattered clouds
381,Acarau,BR,-2.8856,-40.12,26.25,69,7,4.58,clear sky
382,Neya,RU,58.2972,43.8681,18.22,95,100,3.12,overcast clouds
383,Nibbar,TN,36.2941,8.7666,29.2,37,66,2.17,broken clouds
384,San Quintin,MX,30.4833,-115.95,26.17,56,2,6.5,clear sky
385,Kholodnyy,RU,62.7167,147.95,5.78,66,9,0.8,clear sky
386,Lexington,US,37.9887,-84.4777,26.62,45,1,0.45,clear sky
387,Yaan,NG,7.3833,8.5667,23.21,91,99,2.53,moderate rain
388,Plettenberg Bay,ZA,-34.0527,23.3716,13.3,81,4,1.66,clear sky
389,Chernyshevskiy,RU,63.0128,112.4714,14.55,56,75,2.67,broken clouds
390,Galesong,ID,-5.3166,119.3661,21.01,75,13,2.08,few clouds
391,Otjiwarongo,NA,-20.4637,16.6477,13.53,33,0,3.71,clear sky
392,Sanary-Sur-Mer,FR,43.1178,5.8001,22.71,70,6,3.13,clear sky
393,Uchiza,PE,-8.4592,-76.4633,25.87,68,33,0.3,scattered clouds
394,Pinega,RU,64.7001,43.3936,13.96,95,99,2.1,overcast clouds
395,Northfield,US,44.4583,-93.1616,29.54,36,75,2.57,broken clouds
396,Solnechnyy,RU,50.7214,136.6319,16.01,86,70,2.83,broken clouds
397,Rathenow,DE,52.6066,12.337,15.68,76,15,2.82,few clouds
398,Vasilsursk,RU,56.1275,46.0072,21.66,62,26,3.09,scattered clouds
399,Mozarlandia,BR,-14.7447,-50.5706,30.36,21,12,2.64,few clouds
400,Pangnirtung,CA,66.1451,-65.7125,8.96,83,97,2.87,overcast clouds
401,Lindi,TZ,-10.0,39.7167,19.39,87,11,1.84,few clouds
402,Sao Filipe,CV,14.8961,-24.4956,24.78,82,33,2.43,scattered clouds
403,Kurchum,KZ,48.5722,83.6542,20.39,41,0,2.01,clear sky
404,Tessalit,ML,20.1986,1.0114,33.42,29,46,0.99,scattered clouds
405,Dharchula,IN,29.85,80.5333,23.13,93,100,0.53,overcast clouds
406,Namatanai,PG,-3.6667,152.4333,26.23,82,24,2.89,few clouds
407,Hope,US,33.6671,-93.5916,29.64,73,61,1.71,broken clouds
408,Parana,AR,-31.732,-60.5238,17.51,43,0,1.98,clear sky
409,Westport,US,41.1415,-73.3579,28.19,48,1,0.45,clear sky
410,Yumen,CN,40.2833,97.2,18.89,21,80,0.75,broken clouds
411,Spas-Demensk,RU,54.4122,34.0226,15.42,94,47,2.37,scattered clouds
412,Maniitsoq,GL,65.4167,-52.9,8.21,93,100,2.36,overcast clouds
413,Fengzhen,CN,40.4394,113.1536,19.15,71,100,2.16,overcast clouds
414,Inirida,CO,3.8653,-67.9239,23.66,93,96,0.99,overcast clouds
415,Bilma,NE,18.6853,12.9164,36.16,12,5,4.56,clear sky
416,Kenai,US,60.5544,-151.2583,23.35,57,1,4.12,clear sky
417,Hasaki,JP,35.7333,140.8333,26.27,90,99,4.69,overcast clouds
418,Paka,MY,4.6374,103.4368,25.59,88,92,1.29,overcast clouds
419,Sorland,NO,67.667,12.6934,8.04,72,100,5.03,overcast clouds
420,Lompoc,US,34.6391,-120.4579,37.29,65,1,6.69,clear sky
421,Faya,SA,18.3851,42.4509,18.29,67,100,4.47,overcast clouds
422,Tautira,PF,-17.7333,-149.15,28.01,75,100,6.99,overcast clouds
423,Dauphin,CA,51.1494,-100.0502,34.48,16,56,5.18,broken clouds
424,Atar,MR,20.5169,-13.0499,34.59,32,13,3.02,few clouds
425,Santa Lucia,ES,27.9117,-15.5407,19.31,73,75,9.26,broken clouds
426,Great Yarmouth,GB,52.6083,1.7305,16.12,68,100,2.16,overcast clouds
427,Wadi Musa,JO,30.3222,35.4793,23.51,33,0,0.86,clear sky
428,Khudumelapye,BW,-23.8833,24.75,12.96,18,0,2.93,clear sky
429,Srednekolymsk,RU,67.45,153.6833,7.38,58,89,4.4,overcast clouds
430,Bani,DO,18.2833,-70.3333,28.25,61,97,6.33,overcast clouds
431,Tucuman,AR,-26.8241,-65.2226,22.0,23,7,4.63,clear sky
432,Maldonado,UY,-34.6667,-54.9167,8.46,88,30,2.14,scattered clouds
433,Puri,IN,19.8,85.85,29.1,75,100,3.73,overcast clouds
434,Alta Floresta,BR,-9.8756,-56.0861,34.07,22,42,3.12,scattered clouds
435,Praia,CV,14.9215,-23.5087,26.3,78,75,4.12,broken clouds
436,Bealanana,MG,-14.55,48.7333,12.5,97,1,1.13,clear sky
437,Gazanjyk,TM,39.2446,55.5154,31.38,16,82,1.59,broken clouds
438,Havre-Saint-Pierre,CA,50.2334,-63.5986,15.55,80,100,5.04,overcast clouds
439,Iskateley,RU,67.6803,53.1512,8.05,94,15,2.03,few clouds
440,Talnakh,RU,69.4865,88.3972,18.39,54,100,1.97,overcast clouds
441,Forbes,AU,-33.3833,148.0167,6.82,98,60,3.33,broken clouds
442,Sola,VU,-13.8833,167.55,24.37,65,75,2.57,broken clouds
443,Maua,BR,-23.6678,-46.4614,16.89,68,24,3.17,few clouds
444,Rorvik,NO,64.8621,11.2373,8.06,93,75,1.03,broken clouds
445,Hambantota,LK,6.1241,81.1185,25.98,82,100,8.08,overcast clouds
446,Mirabad,AF,30.4362,61.8383,31.68,11,0,9.92,clear sky
447,Huarmey,PE,-10.0681,-78.1522,20.66,72,3,4.81,clear sky
448,Altay,CN,47.8667,88.1167,16.89,42,0,2.29,clear sky
449,Culiacan,MX,24.7994,-107.3897,36.2,52,75,3.09,broken clouds
450,Dicabisagan,PH,17.0818,122.4157,27.32,76,100,1.52,light rain
451,Dalvik,IS,65.9702,-18.5286,12.98,91,100,0.88,overcast clouds
452,Yar-Sale,RU,66.8333,70.8333,12.84,94,100,2.82,overcast clouds
453,Dayong,CN,25.0209,118.2898,25.09,93,95,0.95,overcast clouds
454,Neiafu,TO,-18.65,-173.9833,24.38,73,40,2.57,scattered clouds
455,Karla,EE,59.3723,24.9275,17.54,79,20,3.09,light rain
456,Boende,CD,-0.2167,20.8667,26.4,58,100,0.78,overcast clouds
457,Gamba,GA,-2.65,10.0,23.31,86,70,1.87,broken clouds
458,Nantucket,US,41.2835,-70.0995,26.81,65,1,7.2,clear sky
459,Kaoma,ZM,-14.7833,24.8,13.53,47,0,2.51,clear sky
460,Poya,NC,-21.35,165.15,18.0,66,0,1.32,clear sky
461,Malayal,PH,7.208,121.942,26.3,83,88,1.41,light rain
462,Nogliki,RU,51.8333,143.1667,12.17,91,100,5.48,overcast clouds
463,Gubskaya,RU,44.3164,40.6358,20.53,71,3,2.5,clear sky
464,Vostok,RU,46.4856,135.8833,19.36,88,52,0.52,broken clouds
465,Nortelandia,BR,-14.4547,-56.8028,30.94,21,34,2.5,scattered clouds
466,Kehychivka,UA,49.2866,35.7615,20.41,89,73,4.73,light rain
467,Pakxan,LA,18.3778,103.6601,23.93,97,97,1.84,light rain
468,Santa Rosalia,MX,27.3167,-112.2833,33.21,46,100,3.44,overcast clouds
469,Constitucion,CL,-35.3333,-72.4167,15.62,63,0,4.9,clear sky
470,Neuquen,AR,-38.9516,-68.0591,18.94,34,0,3.09,clear sky
471,Nouadhibou,MR,20.931,-17.0347,20.76,87,57,8.63,broken clouds
472,Qaqortoq,GL,60.7167,-46.0333,12.28,92,92,3.22,overcast clouds
473,Cabedelo,BR,-6.9811,-34.8339,23.37,84,12,6.4,few clouds
474,Gat,IL,31.61,34.7642,29.11,47,0,2.13,clear sky
475,Kampene,CD,-3.6,26.6667,25.61,46,88,0.3,overcast clouds
476,Urumqi,CN,43.801,87.6005,21.53,27,0,5.0,clear sky
477,Magadan,RU,59.5667,150.8,10.08,54,0,4.1,clear sky
478,Carutapera,BR,-1.195,-46.02,24.43,87,61,2.92,broken clouds
479,Buala,SB,-8.145,159.5921,26.02,84,55,2.97,light rain
480,Gawler,AU,-34.6,138.7333,11.2,91,56,5.6,broken clouds
481,Kirkuk,IQ,35.4681,44.3922,33.56,26,0,5.23,clear sky
482,Fallon,US,39.4735,-118.7774,35.93,21,20,2.57,smoke
483,Oranjestad,AW,12.524,-70.027,29.97,70,20,11.83,few clouds
484,Barra Do Garcas,BR,-15.89,-52.2567,29.6,27,6,1.77,clear sky
485,Hegra,NO,63.4644,11.114,9.17,93,40,1.03,scattered clouds
486,Wagga Wagga,AU,-35.1167,147.3667,8.23,100,90,3.09,overcast clouds
487,Thyolo,MW,-16.0678,35.1405,11.99,42,0,1.09,clear sky
488,Aguimes,ES,27.9054,-15.4461,22.03,73,75,9.26,broken clouds
489,Moron,AR,-34.6534,-58.6198,15.94,42,0,0.45,clear sky
490,Ofunato,JP,39.0717,141.7167,24.76,97,100,2.55,overcast clouds
491,Davenda,RU,53.5556,119.317,13.58,94,100,1.21,light rain
492,San Carlos,VE,9.6612,-68.5827,24.21,94,93,2.81,overcast clouds
493,Muriwai Beach,NZ,-36.8167,174.45,13.57,84,27,8.93,scattered clouds
494,Bowen,AU,-20.0167,148.2333,17.07,85,8,2.86,clear sky
495,Kangaatsiaq,GL,68.3065,-53.4641,5.99,92,14,7.87,few clouds
496,Iskandar,UZ,41.5539,69.7008,27.47,35,46,4.19,scattered clouds
497,Svilajnac,RS,44.2337,21.1967,21.69,60,2,1.06,clear sky
498,Jeremie,HT,18.65,-74.1167,28.83,73,94,1.76,overcast clouds
499,Marquette,US,46.5333,-87.6335,25.2,49,71,0.89,broken clouds
500,Anadyr,RU,64.75,177.4833,4.28,100,75,8.94,light rain
501,Coahuayana,MX,18.7333,-103.6833,33.71,61,99,3.26,overcast clouds
502,Camargo,MX,27.6667,-105.1667,29.77,37,76,7.48,broken clouds
503,Moyale,KE,3.5167,39.0584,21.12,51,68,3.8,broken clouds
504,Ejido,VE,8.5514,-71.2375,23.7,72,100,2.72,overcast clouds
505,Ayan,RU,56.45,138.1667,11.92,91,100,4.43,light rain
506,Hirara,JP,24.8,125.2833,27.55,84,93,4.71,overcast clouds
507,Nanakuli,US,21.3906,-158.1547,28.97,57,20,7.72,few clouds
508,Ruza,RU,55.699,36.1952,21.08,75,83,5.49,broken clouds
509,Xian,CN,34.2583,108.9286,25.47,71,21,3.08,few clouds
510,Biloela,AU,-24.4167,150.5,13.05,89,0,1.61,clear sky
511,Zhigansk,RU,66.7697,123.3711,15.62,59,18,4.2,few clouds
512,Port Lincoln,AU,-34.7333,135.8667,10.78,61,57,9.75,broken clouds
513,Jaitaran,IN,26.2031,73.9364,26.66,82,100,7.48,very heavy rain
514,Khandyga,RU,62.6667,135.6,17.19,63,55,0.72,broken clouds
515,Ambon,ID,-3.6954,128.1814,26.45,82,40,3.46,scattered clouds
516,Patea,NZ,-39.7583,174.4833,9.81,92,100,4.55,moderate rain
517,Manggar,ID,-2.8833,108.2667,27.21,77,100,4.01,overcast clouds
518,Tezu,IN,27.9167,96.1667,24.0,96,98,1.81,overcast clouds
519,Rincon,US,32.296,-81.2354,33.28,61,75,2.57,broken clouds
520,Santiago Del Estero,AR,-27.7951,-64.2615,21.56,21,0,3.53,clear sky
521,Severnoye,RU,56.3491,78.3619,13.71,97,28,2.32,scattered clouds
522,Volnovakha,UA,47.601,37.4967,24.41,47,0,2.19,clear sky
523,Hollins,US,37.3413,-79.9431,29.67,42,20,1.54,few clouds
524,San Juan,AR,-31.5375,-68.5364,22.15,16,0,2.68,clear sky
525,Marawi,PH,7.9986,124.2928,20.36,88,97,2.84,overcast clouds
526,Chingirlau,KZ,51.095,54.0814,26.21,31,4,4.38,clear sky
527,Hervey Bay,AU,-25.2986,152.8535,17.06,89,5,5.67,clear sky
528,Lekoni,GA,-1.5843,14.2591,26.53,55,40,3.0,scattered clouds
529,Zhoucheng,CN,35.9122,116.3117,22.25,88,9,1.58,clear sky
530,Oga,IT,46.4631,10.347,11.0,89,47,1.39,scattered clouds
531,Berlevag,NO,70.8578,29.0864,8.97,76,0,0.0,clear sky
532,Hermiston,US,45.8404,-119.2895,37.75,35,1,0.89,haze
533,Urengoy,RU,65.9667,78.3667,14.62,84,18,2.86,light rain
534,Kudahuvadhoo,MV,2.6708,72.8944,27.71,72,100,2.7,overcast clouds
535,Hamilton,US,39.1834,-84.5333,26.77,50,40,1.34,scattered clouds
536,Sakakah,SA,29.9697,40.2064,32.48,13,0,3.32,clear sky
537,Kodinsk,RU,58.6881,99.1844,12.25,87,32,0.29,scattered clouds
538,Sinnamary,GF,5.3833,-52.95,26.57,83,54,3.7,broken clouds
539,Mardin,TR,37.3131,40.7436,28.13,27,11,1.67,few clouds
540,Magdagachi,RU,53.45,125.8,12.92,91,96,1.92,overcast clouds
541,Tena,EC,-0.9833,-77.8167,24.35,69,97,0.68,overcast clouds
542,Swan Hill,AU,-35.3378,143.5544,5.43,96,6,4.83,clear sky
543,Abnub,EG,27.2696,31.1511,33.07,15,1,2.26,clear sky
544,Coronado,US,32.6859,-117.1831,42.47,51,20,6.17,few clouds
545,Ostrov,RU,57.3439,28.3537,14.85,96,97,5.03,overcast clouds
546,Eyl,SO,7.9803,49.8164,26.13,64,61,11.99,broken clouds
547,Avila,ES,40.5833,-5.0,19.8,40,82,1.14,broken clouds
548,Beba,CU,22.4437,-79.7253,35.15,68,100,4.65,overcast clouds
549,Thurso,GB,58.5927,-3.5259,10.14,81,52,2.96,broken clouds
550,Gizo,SB,-8.103,156.8419,26.66,82,86,5.82,light rain
551,Namtsy,RU,62.7161,129.6658,15.06,67,97,1.43,overcast clouds
552,San Carlos De Bariloche,AR,-41.1456,-71.3082,13.86,54,75,7.2,broken clouds
553,Henties Bay,NA,-22.116,14.2845,18.81,61,0,0.75,clear sky
554,Camopi,GF,3.1655,-52.3158,26.07,74,91,1.04,overcast clouds
555,El Porvenir,HN,13.7617,-87.3458,31.49,43,100,4.16,overcast clouds
556,Bagan,RU,54.1001,77.6646,19.29,76,95,1.25,overcast clouds
557,Syracuse,IT,37.0881,15.2792,29.38,65,5,3.36,clear sky
558,Zvishavane,ZW,-20.3267,30.0665,14.25,29,0,0.43,clear sky
559,Ndioum,SN,16.5129,-14.6471,31.48,55,91,6.27,overcast clouds
560,Lorengau,PG,-2.0226,147.2712,27.48,80,18,3.66,few clouds
561,Kaspiyskiy,RU,45.3929,47.3707,26.68,69,5,3.55,clear sky
562,Pontianak,ID,-0.0333,109.3333,24.99,88,90,1.03,overcast clouds
563,Mattru,SL,7.6244,-11.8332,22.42,85,28,1.43,scattered clouds
564,Xai-Xai,MZ,-25.0519,33.6442,20.29,74,2,6.1,clear sky
565,Pennagaram,IN,12.1333,77.9,23.44,72,98,2.37,overcast clouds
566,Brits,ZA,-25.6347,27.7802,16.82,25,0,6.25,clear sky
567,Kalianget,ID,-7.05,113.9333,25.82,81,35,2.47,scattered clouds
568,Bakel,SN,14.905,-12.4568,27.02,79,93,5.13,overcast clouds
569,Ginir,ET,7.1333,40.7,17.4,56,100,6.35,overcast clouds
570,Fujin,CN,47.26,132.0322,24.26,74,89,3.93,overcast clouds
571,Parsabad,IR,39.6482,47.9174,27.88,28,84,1.2,broken clouds
572,Saint-Georges,GD,12.0564,-61.7485,27.65,75,17,4.33,few clouds
573,Shizunai,JP,42.3339,142.3669,23.29,90,100,2.83,overcast clouds
574,Cumpas,MX,29.9833,-109.7833,37.15,27,2,2.32,clear sky
575,Epe,NG,6.5841,3.9834,23.94,92,100,1.91,light rain
576,Taganak,PH,6.0833,118.3,28.86,73,56,3.21,broken clouds
577,Mitu,CO,1.1983,-70.1733,25.65,70,95,1.05,overcast clouds
578,San Policarpo,PH,12.1791,125.5072,27.58,79,100,4.32,overcast clouds
579,Karratha,AU,-20.7377,116.8463,15.42,25,6,7.54,clear sky
580,Zhovtneve,UA,50.6637,24.2492,14.12,91,17,2.89,few clouds
581,Siocon,PH,7.7061,122.1353,26.14,87,95,2.0,overcast clouds
582,Ahipara,NZ,-35.1667,173.1667,12.23,82,2,12.19,clear sky
583,Suntar,RU,62.1444,117.6319,13.71,91,38,0.88,scattered clouds
584,Inhambane,MZ,-23.865,35.3833,19.75,80,0,4.77,clear sky
585,Maltahohe,NA,-24.8333,16.9833,13.06,27,0,2.57,clear sky
586,Altamira,BR,-3.2033,-52.2064,28.63,57,55,1.17,broken clouds
587,Celestun,MX,20.8667,-90.4,30.21,67,21,7.05,few clouds
588,Comodoro Rivadavia,AR,-45.8667,-67.5,16.92,36,20,8.75,few clouds
589,Saint-Pierre,RE,-21.3393,55.4781,19.82,57,0,3.09,clear sky
590,Kalemie,CD,-5.9475,29.1947,21.42,57,0,0.77,clear sky
591,Omboue,GA,-1.5746,9.2618,24.16,85,98,2.65,overcast clouds
592,Camacha,PT,33.0833,-16.3333,21.41,78,40,5.66,scattered clouds
593,Tabas,IR,33.5959,56.9244,30.08,11,0,2.37,clear sky
594,San Andres,CO,12.5847,-81.7006,31.01,74,75,4.63,broken clouds
595,Rio Gallegos,AR,-51.6226,-69.2181,6.84,57,29,15.33,scattered clouds
596,Puerto Escondido,MX,15.85,-97.0667,32.46,62,40,3.6,scattered clouds
597,Dargaville,NZ,-35.9333,173.8833,11.74,86,5,10.76,clear sky
598,Quesnel,CA,52.9999,-122.5029,29.28,42,1,2.06,haze
599,Malanje,AO,-9.5402,16.341,21.34,23,0,0.85,clear sky
600,Ternate,ID,0.8,127.4,27.39,77,59,3.28,broken clouds
601,Marzuq,YE,14.4,46.4667,28.16,53,97,1.54,overcast clouds
602,Smolyaninovo,RU,43.2956,132.4675,21.7,95,95,1.6,overcast clouds
603,Ouro Preto Do Oeste,BR,-10.7481,-62.2158,33.58,20,16,2.82,few clouds
604,Selikhino,RU,50.3672,137.4996,17.21,86,19,4.37,few clouds
605,Toumodi,CI,6.5613,-5.0158,23.29,84,90,1.35,overcast clouds
606,Kalashnikovo,RU,57.2824,35.2262,15.92,92,87,7.05,overcast clouds
607,Petropavlovsk-Kamchatskiy,RU,53.0452,158.6483,11.33,87,75,1.0,light rain
608,Laguna,US,38.421,-121.4238,36.91,22,1,1.79,clear sky
609,Varhaug,NO,58.6147,5.6457,12.49,68,65,8.27,broken clouds
610,Mitsamiouli,KM,-11.3847,43.2844,24.66,70,0,0.78,clear sky
611,Itarema,BR,-2.9248,-39.9167,26.07,69,6,4.63,clear sky
612,Kericho,KE,-0.3677,35.2831,13.19,83,99,1.5,overcast clouds
613,Port Macquarie,AU,-31.4333,152.9167,14.94,100,90,4.12,light rain
614,Guerrero Negro,MX,27.9769,-114.0611,29.55,45,14,5.31,few clouds
615,Olafsvik,IS,64.8945,-23.7142,11.84,81,100,1.87,overcast clouds
616,Turukhansk,RU,65.8167,87.9833,16.48,76,100,4.71,overcast clouds
617,La Peca,PE,-5.6111,-78.435,25.04,57,56,2.89,light rain
618,Reconquista,AR,-29.15,-59.65,16.4,38,0,2.22,clear sky
619,Roma,US,43.2128,-75.4557,23.92,53,20,0.45,few clouds
620,Hailey,US,43.5196,-114.3153,23.92,60,75,0.0,light rain
621,Lajedo,BR,-8.6636,-36.32,17.97,97,68,4.26,broken clouds
622,Kruisfontein,ZA,-34.0033,24.7314,9.94,94,0,2.62,clear sky
623,Shenjiamen,CN,29.9576,122.298,25.98,93,96,4.77,moderate rain
624,Kandrian,PG,-6.2167,149.55,25.57,86,76,2.61,light rain
625,Gibara,CU,21.1097,-76.1317,33.62,65,100,6.45,overcast clouds
626,Georgiyevka,KZ,43.0369,74.7114,20.02,64,20,2.0,few clouds
627,Borovskoy,KZ,53.8,64.15,18.5,63,87,1.7,overcast clouds
628,Flin Flon,CA,54.7682,-101.865,33.71,20,6,2.63,clear sky
629,Fereydun Kenar,IR,36.6864,52.5225,26.17,72,99,2.66,overcast clouds
630,Mokolo,CM,10.7398,13.8019,22.89,83,95,2.32,light rain
631,Mezen,RU,65.8522,44.24,13.35,96,50,2.38,scattered clouds
632,Young,UY,-32.6833,-57.6333,11.26,64,0,1.38,clear sky
633,Popondetta,PG,-8.7537,148.2534,22.82,88,71,1.23,broken clouds
634,Baruun-Urt,MN,46.6806,113.2792,16.61,52,93,2.01,overcast clouds
635,Chicama,PE,-7.8447,-79.1469,19.3,61,1,4.38,clear sky
636,Kaura Namoda,NG,12.5898,6.5779,25.37,78,100,3.76,overcast clouds
637,Tazovskiy,RU,67.4667,78.7,13.15,85,73,3.03,broken clouds
638,Yaritagua,VE,10.08,-69.1261,25.91,73,75,5.64,light rain
639,Dhidhdhoo,MV,6.8833,73.1,27.97,72,98,3.34,overcast clouds
640,Dom Pedrito,BR,-30.9828,-54.6731,11.21,79,0,2.05,clear sky
641,Parrita,CR,9.5201,-84.3225,31.1,81,99,1.95,overcast clouds
642,Edson,CA,53.5835,-116.4356,18.93,74,100,0.08,moderate rain
643,Plyussa,RU,58.4308,29.3654,13.42,95,100,5.55,overcast clouds
644,Taoudenni,ML,22.6783,-3.9836,34.69,32,99,9.85,overcast clouds
645,Viedma,AR,-40.8135,-62.9967,18.19,25,68,5.11,broken clouds
646,Olga,RU,43.7444,135.2892,19.38,96,100,0.64,overcast clouds
647,Michigan City,US,41.7075,-86.895,25.76,55,1,3.6,clear sky
648,Gold Coast,AU,-28.0,153.4333,18.47,94,40,0.45,scattered clouds
649,Te Anau,NZ,-45.4167,167.7167,3.55,93,50,0.69,scattered clouds
650,Oranjemund,NA,-28.55,16.4333,16.16,53,0,0.62,clear sky
651,Upington,ZA,-28.4478,21.2561,14.93,20,0,4.04,clear sky
652,Iberia,US,29.9502,-91.7507,30.54,94,90,7.72,thunderstorm with heavy rain
653,Bucu,RO,44.6053,27.4934,27.2,68,0,6.6,clear sky
654,Port Said,EG,31.2565,32.2841,28.99,68,0,2.28,clear sky
655,Malartic,CA,48.1335,-78.1328,21.12,60,89,4.33,overcast clouds
656,Kalofer,BG,42.6167,24.9833,24.38,40,8,2.79,clear sky
657,Nyurba,RU,63.2842,118.3319,14.4,60,0,2.23,clear sky
658,Mikun,RU,62.3547,50.0771,13.77,94,82,1.12,broken clouds
659,Kathu,TH,7.9178,98.3332,27.9,80,100,8.51,overcast clouds
660,Spirit River,CA,55.7833,-118.8361,19.7,74,100,0.78,overcast clouds
661,Quime,BO,-16.9833,-67.2167,9.11,79,99,2.49,overcast clouds
662,Yambio,SS,4.5721,28.3955,19.45,97,100,2.2,overcast clouds
663,Filingue,NE,14.3521,3.3168,33.73,40,100,2.31,overcast clouds
664,Biak,ID,-0.9131,122.8766,23.95,80,64,2.98,broken clouds
665,Denpasar,ID,-8.65,115.2167,24.81,94,75,4.12,broken clouds
666,Lakatoro,VU,-16.0999,167.4164,22.68,60,96,3.71,overcast clouds
667,Choix,MX,26.7092,-108.3219,36.75,36,97,2.88,overcast clouds
668,Manokwari,ID,-0.8667,134.0833,25.76,78,95,1.13,overcast clouds
669,Umm Lajj,SA,25.0213,37.2685,32.04,44,4,1.07,clear sky
670,College,US,64.8569,-147.8028,28.89,49,20,3.09,few clouds
671,Shache,CN,38.4167,77.2406,17.67,58,100,1.72,overcast clouds
672,Sistranda,NO,63.7256,8.834,11.06,68,28,2.26,scattered clouds
673,Agirish,RU,61.9247,63.0231,13.68,84,78,2.27,broken clouds
674,Macia,MZ,-25.0269,33.0989,18.85,76,4,4.44,clear sky
675,Mbandaka,CD,0.0487,18.2603,24.47,62,93,1.76,overcast clouds
676,Qujing,CN,25.4833,103.7833,14.4,90,3,1.18,clear sky
677,Havelock,US,34.8791,-76.9013,29.47,86,96,0.45,light rain
678,Tazmalt,DZ,36.3868,4.3989,23.83,74,75,2.21,broken clouds
679,Eureka,US,40.8021,-124.1637,28.71,73,46,1.34,scattered clouds
